[{"id":"p10","title":"Parisian Streets","image":{"src":"parisian-streets.jpg","alt":"Charming streets of Paris with historic buildings and cafes."},"lat":48.8566,"lon":2.3522},{"id":"p16","title":"Victoria Falls","image":{"src":"victoria-falls.jpg","alt":"The powerful cascade of Victoria Falls, a natural wonder between Zambia and Zimbabwe."},"lat":-17.9243,"lon":25.8572},{"id":"p12","title":"Venetian Canals","image":{"src":"venetian-canals.jpg","alt":"Glistening waters of the Venetian canals as gondolas glide by at sunset."},"lat":45.4408,"lon":12.3155},{"id":"p3","title":"Himalayan Peaks","image":{"src":"majestic-mountains.jpg","alt":"The sun setting behind snow-capped peaks of majestic mountains."},"lat":27.9881,"lon":86.925},{"id":"p15","title":"African Savanna","image":{"src":"african-savanna.jpg","alt":"Wild animals roaming freely in the vast landscapes of the African savanna."},"lat":-2.153,"lon":34.6857},{"id":"p8","title":"Japanese Temple","image":{"src":"japanese-temple.jpg","alt":"Ancient Japanese temple surrounded by autumn foliage."},"lat":34.9949,"lon":135.785}]